[
 {
   "name": "المسعد للتجاره",
   "type": "جمله بدون فريق ",
   "phone": 777708382,
   "lat": 15.352394,
   "lng": 44.19512,
   "address": "شارع السلال امام مركز القاع الطبي",
   "hours": "9 صباحاً - 9 مساءً",
   "link": "https://maps.google.com/?q=15.352394,44.19512"
 },
 {
   "name": "محلات فايز الحبابي",
   "type": "جمله بدون فريق ",
   "phone": 773755301,
   "lat": 15.410415,
   "lng": 44.202873,
   "address": "جوار الملعب امام البوابة الجنوبية",
   "hours": "9 صباحاً - 9 مساءً",
   "link": "https://maps.google.com/?q=15.410415,44.202873"
 },
 {
   "name": "محلات يوسف كامل",
   "type": "جمله بدون فريق ",
   "phone": 773688884,
   "lat": 15.4136,
   "lng": 44.204015,
   "address": "حي الزريقي مقابل البوابة الشرقية",
   "hours": "9 صباحاً - 9 مساءً",
   "link": "https://maps.google.com/?q=15.4136,44.204015"
 },
 {
   "name": "محلات محمد علوان",
   "type": "جمله بدون فريق ",
   "phone": 773994118,
   "lat": 15.412895,
   "lng": 44.205062,
   "address": "حي الزريقي خلف الملعب",
   "hours": "9 صباحاً - 9 مساءً",
   "link": "https://maps.google.com/?q=15.412895,44.205062"
 },
 {
   "name": "محلات محمد علي البابلي",
   "type": "جمله بدون فريق ",
   "phone": 770522656,
   "lat": 15.41542,
   "lng": 44.204018,
   "address": "حي الزريقي خلف الملعب",
   "hours": "9 صباحاً - 9 مساءً",
   "link": "https://maps.google.com/?q=15.41542,44.204018"
 },
 {
   "name": "محلات فؤاد اليمني",
   "type": "جمله بدون فريق ",
   "phone": 773093115,
   "lat": 15.415653,
   "lng": 44.20424,
   "address": "حي الزريقي خلف الملعب",
   "hours": "9 صباحاً - 9 مساءً",
   "link": "https://maps.google.com/?q=15.415653,44.20424"
 },
 {
   "name": "محلات محروس القديمي",
   "type": "جمله بدون فريق ",
   "phone": 777409972,
   "lat": 15.415743,
   "lng": 44.203858,
   "address": "حي الزريقي خلف الملعب",
   "hours": "9 صباحاً - 9 مساءً",
   "link": "https://maps.google.com/?q=15.415743,44.203858"
 },
 {
   "name": "محلات مياس",
   "type": "جمله بدون فريق ",
   "phone": 776777782,
   "lat": 15.417128,
   "lng": 44.202867,
   "address": "حي الزريقي جوار جامعة دار سلم",
   "hours": "9 صباحاً - 9 مساءً",
   "link": "https://maps.google.com/?q=15.417128,44.202867"
 },
 {
   "name": "محلات قادش اخوان للتجارة العامة",
   "type": "جمله بدون فريق ",
   "phone": 770649151,
   "lat": 15.416957,
   "lng": 44.201912,
   "address": "شارع الزريقي جوار جامعة دار السلام",
   "hours": "9 صباحاً - 9 مساءً",
   "link": "https://maps.google.com/?q=15.416957,44.201912"
 },
 {
   "name": "محلات هايل المطري",
   "type": "جمله بدون فريق ",
   "phone": 770806101,
   "lat": 15.413223,
   "lng": 44.204054,
   "address": "شارع الزريقي",
   "hours": "9 صباحاً - 9 مساءً",
   "link": "https://maps.google.com/?q=15.413223,44.204054"
 },
 {
   "name": "المنتاب للتجارة العامة",
   "type": "جمله بدون فريق ",
   "phone": 773643267,
   "lat": 15.387062,
   "lng": 44.206492,
   "address": "الحصبة شارع مازدا جوار المنتاب للصر",
   "hours": "9 صباحاً - 9 مساءً",
   "link": "https://maps.google.com/?q=15.387062,44.206492"
 },
 {
   "name": "محلات فاهم الزريقي",
   "type": "جمله بدون فريق ",
   "phone": 773933320,
   "lat": 15.416128,
   "lng": 44.202835,
   "address": "حي الزريقي خلف الملعب",
   "hours": "9 صباحاً - 9 مساءً",
   "link": "https://maps.google.com/?q=15.416128,44.202835"
 },
 {
   "name": "محلات منصور المرهبي",
   "type": "جمله بدون فريق ",
   "phone": 772428818,
   "lat": 15.399275,
   "lng": 44.179252,
   "address": "شارع الستين مدخل سوق علي محسن للخضر",
   "hours": "9 صباحاً - 9 مساءً",
   "link": "https://maps.google.com/?q=15.399275,44.179252"
 },
 {
   "name": "محلات فيصل القاضي",
   "type": "جمله بدون فريق ",
   "phone": 777277341,
   "lat": 15.366668,
   "lng": 44.195364,
   "address": "شارع الميثاق امام مكتب بريد الحريه",
   "hours": "9 صباحاً - 9 مساءً",
   "link": "https://maps.google.com/?q=15.366668,44.195364"
 },
 {
   "name": "محلات محمد حسين الوتاري",
   "type": "جمله بدون فريق ",
   "phone": 770006533,
   "lat": 15.370802,
   "lng": 44.194653,
   "address": "سواد حنش جوار سوق ارحب للقات",
   "hours": "9 صباحاً - 9 مساءً",
   "link": "https://maps.google.com/?q=15.370802,44.194653"
 },
 {
   "name": "محل عبدالرحمن كابع",
   "type": "جمله بدون فريق ",
   "phone": 777253920,
   "lat": 15.367835,
   "lng": 44.201365,
   "address": "شارع تونس أمام الطفل السعيد",
   "hours": "9 صباحاً - 9 مساءً",
   "link": "https://maps.google.com/?q=15.367835,44.201365"
 },
 {
   "name": "الاعلام الجديد للتجاره لبيع المواد",
   "type": "جمله بدون فريق ",
   "phone": 777500558,
   "lat": 15.383897,
   "lng": 44.189857,
   "address": "شارع الثلاثين امام نادي النهضه الر",
   "hours": "9 صباحاً - 9 مساءً",
   "link": "https://maps.google.com/?q=15.383897,44.189857"
 },
 {
   "name": "محلات الجوفي التجارية",
   "type": "جمله بدون فريق ",
   "phone": 777710096,
   "lat": 15.408992,
   "lng": 44.214062,
   "address": "شارع المطار جوار جسر الشايف",
   "hours": "9 صباحاً - 9 مساءً",
   "link": "https://maps.google.com/?q=15.408992,44.214062"
 },
 {
   "name": "الحراسي للتجارة العامة",
   "type": "جمله بدون فريق ",
   "phone": 773443874,
   "lat": 15.388269,
   "lng": 44.202912,
   "address": "شارع الصيانة .جوار موسسة مياة الريف",
   "hours": "9 صباحاً - 9 مساءً",
   "link": "https://maps.google.com/?q=15.388269,44.202912"
 },
 {
   "name": "محلات ابو ايمن لتجاره المواد الغذائ",
   "type": "جمله بدون فريق ",
   "phone": 771439819,
   "lat": 15.363448,
   "lng": 44.204029,
   "address": "شارع القياده جوار جامع الشوكاني",
   "hours": "9 صباحاً - 9 مساءً",
   "link": "https://maps.google.com/?q=15.363448,44.204029"
 },
 {
   "name": "محلات علي العولقي",
   "type": "جمله بدون فريق ",
   "phone": 770117682,
   "lat": 15.201649,
   "lng": 43.962738,
   "address": "بيت الورد الحيمه الخارجيه",
   "hours": "9 صباحاً - 9 مساءً",
   "link": "https://maps.google.com/?q=15.201649,43.962738"
 },
 {
   "name": "محلات بجاش الراسني",
   "type": "جمله بدون فريق ",
   "phone": 713207685,
   "lat": 15.094068,
   "lng": 43.866296,
   "address": "الحيمه الخارجيه بني منصور",
   "hours": "9 صباحاً - 9 مساءً",
   "link": "https://maps.google.com/?q=15.094068,43.866296"
 },
 {
   "name": "محلات محمد احمد اسماعيل",
   "type": "جمله بدون فريق ",
   "phone": 716631874,
   "lat": 15.094259,
   "lng": 43.865769,
   "address": "الحيمه الخارجيه بني منصور",
   "hours": "9 صباحاً - 9 مساءً",
   "link": "https://maps.google.com/?q=15.094259,43.865769"
 },
 {
   "name": "محلات نبيل اليادعي",
   "type": "جمله بدون فريق ",
   "phone": 772312990,
   "lat": 15.093286,
   "lng": 43.866925,
   "address": "الحيمه الخارجيه بني منصور",
   "hours": "9 صباحاً - 9 مساءً",
   "link": "https://maps.google.com/?q=15.093286,43.866925"
 },
 {
   "name": "محلات صهيب المنصوري",
   "type": "جمله بدون فريق ",
   "phone": 772426620,
   "lat": 15.093163,
   "lng": 43.867027,
   "address": "الحيمه الخارجيه بني منصور",
   "hours": "9 صباحاً - 9 مساءً",
   "link": "https://maps.google.com/?q=15.093163,43.867027"
 },
 {
   "name": "محلات الخير المركزيه",
   "type": "جمله بدون فريق ",
   "phone": 772171852,
   "lat": 15.093002,
   "lng": 43.867142,
   "address": "الحيمه الخارجيه بني منصور",
   "hours": "9 صباحاً - 9 مساءً",
   "link": "https://maps.google.com/?q=15.093002,43.867142"
 },
 {
   "name": "محلات المنصوري",
   "type": "جمله بدون فريق ",
   "phone": 770466881,
   "lat": 15.09254,
   "lng": 43.868026,
   "address": "الحيمه الخارجيه بني منصور",
   "hours": "9 صباحاً - 9 مساءً",
   "link": "https://maps.google.com/?q=15.09254,43.868026"
 },
 {
   "name": "محل سنابل الخير",
   "type": "جمله بدون فريق ",
   "phone": 772461448,
   "lat": 15.092553,
   "lng": 43.871736,
   "address": "الحيمه الخارجيه بني منصور",
   "hours": "9 صباحاً - 9 مساءً",
   "link": "https://maps.google.com/?q=15.092553,43.871736"
 },
 {
   "name": "محلات سيف  الجحدبي واخوانه",
   "type": "جمله بدون فريق ",
   "phone": 770583331,
   "lat": 15.092792,
   "lng": 43.871812,
   "address": "الحيمه الخارجيه بني منصور",
   "hours": "9 صباحاً - 9 مساءً",
   "link": "https://maps.google.com/?q=15.092792,43.871812"
 },
 {
   "name": "محلات الدرواني",
   "type": "جمله بدون فريق ",
   "phone": 772213257,
   "lat": 15.093456,
   "lng": 43.868344,
   "address": "الحيمه الخارجيه بني منصور",
   "hours": "9 صباحاً - 9 مساءً",
   "link": "https://maps.google.com/?q=15.093456,43.868344"
 },
 {
   "name": "محلات محمد حمود العسكري",
   "type": "جمله بدون فريق ",
   "phone": 773970675,
   "lat": 15.093386,
   "lng": 43.868351,
   "address": "الحيمه الخارجيه بني منصور",
   "hours": "9 صباحاً - 9 مساءً",
   "link": "https://maps.google.com/?q=15.093386,43.868351"
 },
 {
   "name": "محلات علي حمود العسكري",
   "type": "جمله بدون فريق ",
   "phone": 772597249,
   "lat": 15.093965,
   "lng": 43.868496,
   "address": "الحيمه الخارجيه بني منصور",
   "hours": "9 صباحاً - 9 مساءً",
   "link": "https://maps.google.com/?q=15.093965,43.868496"
 },
 {
   "name": "محلات الصباري للتجاره والتسويق",
   "type": "جمله بدون فريق ",
   "phone": 770203094,
   "lat": 15.099524,
   "lng": 43.868192,
   "address": "الحيمه الخارجيه بني منصور",
   "hours": "9 صباحاً - 9 مساءً",
   "link": "https://maps.google.com/?q=15.099524,43.868192"
 },
 {
   "name": "محلات عبدالكريم السلامي واخيه",
   "type": "جمله بدون فريق ",
   "phone": 774212933,
   "lat": 15.16738,
   "lng": 43.960475,
   "address": "الحيمه الخارجيه بيت السلامي",
   "hours": "9 صباحاً - 9 مساءً",
   "link": "https://maps.google.com/?q=15.16738,43.960475"
 },
 {
   "name": "محلات بكيل القلام",
   "type": "جمله بدون فريق ",
   "phone": 773392286,
   "lat": 15.092528,
   "lng": 43.869676,
   "address": "الحيمه الخارجيه بني منصور",
   "hours": "9 صباحاً - 9 مساءً",
   "link": "https://maps.google.com/?q=15.092528,43.869676"
 },
 {
   "name": "محلات اليسر",
   "type": "جمله بدون فريق ",
   "phone": 775496571,
   "lat": 15.092528,
   "lng": 43.869483,
   "address": "الحيمه الخارجيه بني منصور",
   "hours": "9 صباحاً - 9 مساءً",
   "link": "https://maps.google.com/?q=15.092528,43.869483"
 },
 {
   "name": "محلات ابو سلطان",
   "type": "جمله بدون فريق ",
   "phone": 772144386,
   "lat": 15.09258,
   "lng": 43.869348,
   "address": "الحيمه الخارجيه بني منصور",
   "hours": "9 صباحاً - 9 مساءً",
   "link": "https://maps.google.com/?q=15.09258,43.869348"
 },
 {
   "name": "محلات محمد علي محسن المنصوري",
   "type": "جمله بدون فريق ",
   "phone": 775203827,
   "lat": 15.092439,
   "lng": 43.869335,
   "address": "الحيمه الخارجيه بني منصور",
   "hours": "9 صباحاً - 9 مساءً",
   "link": "https://maps.google.com/?q=15.092439,43.869335"
 },
 {
   "name": "محلات عبده  صالح النهمي",
   "type": "جمله بدون فريق ",
   "phone": 772358878,
   "lat": 15.224273,
   "lng": 43.937432,
   "address": "الحيمه الداخليه سوق السلف",
   "hours": "9 صباحاً - 9 مساءً",
   "link": "https://maps.google.com/?q=15.224273,43.937432"
 },
 {
   "name": "محلات محمد علي المعافا واولاده",
   "type": "جمله بدون فريق ",
   "phone": 775482428,
   "lat": 15.225225,
   "lng": 43.93775,
   "address": "الحيمه الداخليه",
   "hours": "9 صباحاً - 9 مساءً",
   "link": "https://maps.google.com/?q=15.225225,43.93775"
 },
 {
   "name": "محلات الجومري",
   "type": "جمله بدون فريق ",
   "phone": 777725801,
   "lat": 15.226631,
   "lng": 43.937644,
   "address": "الحيمه الداخليه",
   "hours": "9 صباحاً - 9 مساءً",
   "link": "https://maps.google.com/?q=15.226631,43.937644"
 },
 {
   "name": "محلات علي حيدر",
   "type": "جمله بدون فريق ",
   "phone": 775085914,
   "lat": 15.22653,
   "lng": 43.937554,
   "address": "الحيمه الداخليه",
   "hours": "9 صباحاً - 9 مساءً",
   "link": "https://maps.google.com/?q=15.22653,43.937554"
 },
 {
   "name": "محلات احمد ناجي السياغي",
   "type": "جمله بدون فريق ",
   "phone": 770064281,
   "lat": 15.224386,
   "lng": 43.937064,
   "address": "الحيمه الداخليه",
   "hours": "9 صباحاً - 9 مساءً",
   "link": "https://maps.google.com/?q=15.224386,43.937064"
 },
 {
   "name": "محل الظفيري",
   "type": "جمله بدون فريق ",
   "phone": 770499375,
   "lat": 15.458042,
   "lng": 43.632165,
   "address": "الرجم ـ السوق القديم",
   "hours": "9 صباحاً - 9 مساءً",
   "link": "https://maps.google.com/?q=15.458042,43.632165"
 },
 {
   "name": "مؤسسة المنجشي للتجارة العامه",
   "type": "جمله بدون فريق ",
   "phone": 777742066,
   "lat": 15.457624,
   "lng": 43.631036,
   "address": "الشارع العام ـ الرجم",
   "hours": "9 صباحاً - 9 مساءً",
   "link": "https://maps.google.com/?q=15.457624,43.631036"
 },
 {
   "name": "محلات عمرو عثاربة",
   "type": "جمله بدون فريق ",
   "phone": 770869852,
   "lat": 15.320175,
   "lng": 44.223473,
   "address": "شارع 16بيت معياد جوار مكتب التربية",
   "hours": "9 صباحاً - 9 مساءً",
   "link": "https://maps.google.com/?q=15.320175,44.223473"
 },
 {
   "name": "الوصابي للتجارة",
   "type": "جمله بدون فريق ",
   "phone": 772000789,
   "lat": 15.292199,
   "lng": 44.196548,
   "address": "شارع الخمسين امام بهارات ياسين",
   "hours": "9 صباحاً - 9 مساءً",
   "link": "https://maps.google.com/?q=15.292199,44.196548"
 },
 {
   "name": "محلات الخولاني للتجاره",
   "type": "جمله بدون فريق ",
   "phone": 999999999,
   "lat": 15.318243,
   "lng": 44.230082,
   "address": "شارع تعز امام شركة العمري للصرافة",
   "hours": "9 صباحاً - 9 مساءً",
   "link": "https://maps.google.com/?q=15.318243,44.230082"
 },
 {
   "name": "محلات الحكمي",
   "type": "جمله بدون فريق ",
   "phone": 771562363,
   "lat": 15.336333,
   "lng": 44.220908,
   "address": "شارع ابوظبي جولة تعز",
   "hours": "9 صباحاً - 9 مساءً",
   "link": "https://maps.google.com/?q=15.336333,44.220908"
 },
 {
   "name": "محلات احمد حيدر الريمي",
   "type": "جمله بدون فريق ",
   "phone": 774365241,
   "lat": 15.332457,
   "lng": 44.21759,
   "address": "شارع علي محسن جوار سوق عنس",
   "hours": "9 صباحاً - 9 مساءً",
   "link": "https://maps.google.com/?q=15.332457,44.21759"
 },
 {
   "name": "دهماد للتجاره والتبريد",
   "type": "جمله بدون فريق ",
   "phone": 770960777,
   "lat": 15.283622,
   "lng": 44.211778,
   "address": "المثلثالذهبي شارع 24المتفرع من شارع",
   "hours": "9 صباحاً - 9 مساءً",
   "link": "https://maps.google.com/?q=15.283622,44.211778"
 },
 {
   "name": "حفظ الله حسن للتجاره",
   "type": "جمله بدون فريق ",
   "phone": 771200381,
   "lat": 15.307437,
   "lng": 44.234388,
   "address": "شارع تعز جولة شميله",
   "hours": "9 صباحاً - 9 مساءً",
   "link": "https://maps.google.com/?q=15.307437,44.234388"
 },
 {
   "name": "ثمار الحمد التجاريه",
   "type": "جمله بدون فريق ",
   "phone": 777099389,
   "lat": 15.298178,
   "lng": 44.226552,
   "address": "شارع الحديده متفرع من بينون",
   "hours": "9 صباحاً - 9 مساءً",
   "link": "https://maps.google.com/?q=15.298178,44.226552"
 },
 {
   "name": "محلات الجابري التجارية",
   "type": "جمله بدون فريق ",
   "phone": 773094009,
   "lat": 15.311848,
   "lng": 44.229631,
   "address": "القدسيه شارع سقطره حارة صرواح",
   "hours": "9 صباحاً - 9 مساءً",
   "link": "https://maps.google.com/?q=15.311848,44.229631"
 },
 {
   "name": "الواقدي للتجارة",
   "type": "جمله بدون فريق ",
   "phone": 775241176,
   "lat": 15.302392,
   "lng": 44.235127,
   "address": "شارع بيحان مقابل فندق الاستقبال",
   "hours": "9 صباحاً - 9 مساءً",
   "link": "https://maps.google.com/?q=15.302392,44.235127"
 },
 {
   "name": "أبو أسامة للتجاره",
   "type": "جمله بدون فريق ",
   "phone": 777919434,
   "lat": 15.294719,
   "lng": 44.223796,
   "address": "الاصبحي الشمالي جوار مجمع الشهيد",
   "hours": "9 صباحاً - 9 مساءً",
   "link": "https://maps.google.com/?q=15.294719,44.223796"
 },
 {
   "name": "محلات احمد ضافر",
   "type": "جمله بدون فريق ",
   "phone": 777882904,
   "lat": 15.33134,
   "lng": 44.21134,
   "address": "شارع النصر امام حمامات السبعين",
   "hours": "9 صباحاً - 9 مساءً",
   "link": "https://maps.google.com/?q=15.33134,44.21134"
 },
 {
   "name": "محلات البكار",
   "type": "جمله بدون فريق ",
   "phone": 777491768,
   "lat": 15.332603,
   "lng": 44.211217,
   "address": "شارع النصر امام مطرح النيس",
   "hours": "9 صباحاً - 9 مساءً",
   "link": "https://maps.google.com/?q=15.332603,44.211217"
 },
 {
   "name": "محلات علي شمس الدين",
   "type": "جمله بدون فريق ",
   "phone": 771924142,
   "lat": 15.332803,
   "lng": 44.21115,
   "address": "شارع النصر جوار سوق العواضي",
   "hours": "9 صباحاً - 9 مساءً",
   "link": "https://maps.google.com/?q=15.332803,44.21115"
 },
 {
   "name": "ثلاجة ومحلات جمال مجلي للتجارة المو",
   "type": "جمله بدون فريق ",
   "phone": 733336033,
   "lat": 15.312161,
   "lng": 44.233337,
   "address": "شميله امام فندق السفينه",
   "hours": "9 صباحاً - 9 مساءً",
   "link": "https://maps.google.com/?q=15.312161,44.233337"
 },
 {
   "name": "محلات الجعمي واولاده للتجاره العامه",
   "type": "جمله بدون فريق ",
   "phone": 777737915,
   "lat": 15.309215,
   "lng": 44.228935,
   "address": "شا رع سقطره جوار داديه للصرافه",
   "hours": "9 صباحاً - 9 مساءً",
   "link": "https://maps.google.com/?q=15.309215,44.228935"
 },
 {
   "name": "الحبيشي للتجارة",
   "type": "جمله بدون فريق ",
   "phone": 775053633,
   "lat": 15.307342,
   "lng": 44.195512,
   "address": "ش بيروت امام مستشفى حده التخصصي",
   "hours": "9 صباحاً - 9 مساءً",
   "link": "https://maps.google.com/?q=15.307342,44.195512"
 },
 {
   "name": "محلات صدام السكني للتجارة",
   "type": "جمله بدون فريق ",
   "phone": 771128848,
   "lat": 15.30164,
   "lng": 44.194953,
   "address": "شارع صفر جوار مسعود للصرافه",
   "hours": "9 صباحاً - 9 مساءً",
   "link": "https://maps.google.com/?q=15.30164,44.194953"
 },
 {
   "name": "محمد هواش",
   "type": "جمله بدون فريق ",
   "phone": 775125120,
   "lat": 15.30972,
   "lng": 44.19342,
   "address": "ش حدة",
   "hours": "9 صباحاً - 9 مساءً",
   "link": "https://maps.google.com/?q=15.30972,44.19342"
 },
 {
   "name": "محلات الحطامي",
   "type": "جمله بدون فريق ",
   "phone": 770689919,
   "lat": 15.315858,
   "lng": 44.235128,
   "address": "حي ضفار جوار شارع المرور شارع ا",
   "hours": "9 صباحاً - 9 مساءً",
   "link": "https://maps.google.com/?q=15.315858,44.235128"
 },
 {
   "name": "صالح المريسي للتجارة العامة",
   "type": "جمله بدون فريق ",
   "phone": 772991000,
   "lat": 15.315716,
   "lng": 44.231255,
   "address": "شارع تعز تقاطع المرور جوار عمارة ا",
   "hours": "9 صباحاً - 9 مساءً",
   "link": "https://maps.google.com/?q=15.315716,44.231255"
 },
 {
   "name": "محلات الكميم لتجارة للمواد الغذائية",
   "type": "جمله بدون فريق ",
   "phone": 771295537,
   "lat": 15.312247,
   "lng": 44.232407,
   "address": "شارع تعز",
   "hours": "9 صباحاً - 9 مساءً",
   "link": "https://maps.google.com/?q=15.312247,44.232407"
 },
 {
   "name": "مركز الفتح",
   "type": "جمله بدون فريق ",
   "phone": 774013750,
   "lat": 15.316333,
   "lng": 44.230817,
   "address": "القادسية جوار فندق سكاي سيتي جولة ا",
   "hours": "9 صباحاً - 9 مساءً",
   "link": "https://maps.google.com/?q=15.316333,44.230817"
 },
 {
   "name": "الزبيدي للتجاره مواد غذائيه جمله تج",
   "type": "جمله بدون فريق ",
   "phone": 774778289,
   "lat": 15.304619,
   "lng": 44.230713,
   "address": "شارع بينون جوار الکريمي",
   "hours": "9 صباحاً - 9 مساءً",
   "link": "https://maps.google.com/?q=15.304619,44.230713"
 },
 {
   "name": "محلات شرهان للتجارة",
   "type": "جمله بدون فريق ",
   "phone": 772259279,
   "lat": 15.339743,
   "lng": 44.213854,
   "address": "شارع التضامن جوار مستشفى الامل",
   "hours": "9 صباحاً - 9 مساءً",
   "link": "https://maps.google.com/?q=15.339743,44.213854"
 },
 {
   "name": "الحنبصي للتجارة العامه",
   "type": "جمله بدون فريق ",
   "phone": 777402098,
   "lat": 15.340531,
   "lng": 44.212546,
   "address": "شارع البليلي امام سوق القات",
   "hours": "9 صباحاً - 9 مساءً",
   "link": "https://maps.google.com/?q=15.340531,44.212546"
 },
 {
   "name": "محلات نائف حسن حمود القحوي للتجارة",
   "type": "جمله بدون فريق ",
   "phone": 999999999,
   "lat": 15.339735,
   "lng": 44.213243,
   "address": "حي التضامن جوار مستشفي الام",
   "hours": "9 صباحاً - 9 مساءً",
   "link": "https://maps.google.com/?q=15.339735,44.213243"
 },
 {
   "name": "البكار للتجارة",
   "type": "جمله بدون فريق ",
   "phone": 773244424,
   "lat": 15.336722,
   "lng": 44.211509,
   "address": "الصافيه أمام مسجد الرحبي",
   "hours": "9 صباحاً - 9 مساءً",
   "link": "https://maps.google.com/?q=15.336722,44.211509"
 },
 {
   "name": "محلات النميري للتجارة",
   "type": "جمله بدون فريق ",
   "phone": 735193306,
   "lat": 15.3366,
   "lng": 44.211525,
   "address": "الصافيه أمام مسجد الرحبي",
   "hours": "9 صباحاً - 9 مساءً",
   "link": "https://maps.google.com/?q=15.3366,44.211525"
 },
 {
   "name": "محلات صالح الكميم للتجارة",
   "type": "جمله بدون فريق ",
   "phone": 777453257,
   "lat": 15.345379,
   "lng": 44.217708,
   "address": "باب اليمن جوار ورشه ناصر",
   "hours": "9 صباحاً - 9 مساءً",
   "link": "https://maps.google.com/?q=15.345379,44.217708"
 },
 {
   "name": "محلات النودة  للتجارة",
   "type": "جمله بدون فريق ",
   "phone": 777295696,
   "lat": 15.348092,
   "lng": 44.214563,
   "address": "باب اليمن جوار جامع الشهداء",
   "hours": "9 صباحاً - 9 مساءً",
   "link": "https://maps.google.com/?q=15.348092,44.214563"
 },
 {
   "name": "النشبة للتجارة العامة",
   "type": "جمله بدون فريق ",
   "phone": 777266943,
   "lat": 15.332403,
   "lng": 44.226306,
   "address": "شارع 45 -حارة سبا- بعد جامع فاطمة",
   "hours": "9 صباحاً - 9 مساءً",
   "link": "https://maps.google.com/?q=15.332403,44.226306"
 },
 {
   "name": "محلات الكميم للتجارة",
   "type": "جمله بدون فريق ",
   "phone": 775951507,
   "lat": 15.34589,
   "lng": 44.217696,
   "address": "شارع تعز جوار محطة الشعب فرزة تعز",
   "hours": "9 صباحاً - 9 مساءً",
   "link": "https://maps.google.com/?q=15.34589,44.217696"
 },
 {
   "name": "الجبلين للتجارة&#160;العامة",
   "type": "جمله بدون فريق ",
   "phone": 773634156,
   "lat": 15.350315,
   "lng": 44.219313,
   "address": "باب السلام بوابة مستشفى الثوره البو",
   "hours": "9 صباحاً - 9 مساءً",
   "link": "https://maps.google.com/?q=15.350315,44.219313"
 },
 {
   "name": "محلات الراعي للتجارة",
   "type": "جمله بدون فريق ",
   "phone": 772771951,
   "lat": 15.346889,
   "lng": 44.217323,
   "address": "باب اليمن جوار الكريمي",
   "hours": "9 صباحاً - 9 مساءً",
   "link": "https://maps.google.com/?q=15.346889,44.217323"
 },
 {
   "name": "محلات محمد يحي الكميم لتجارة المواد",
   "type": "جمله بدون فريق ",
   "phone": 770203227,
   "lat": 15.34609,
   "lng": 44.217407,
   "address": "باب اليمن جوار القبر الابيض",
   "hours": "9 صباحاً - 9 مساءً",
   "link": "https://maps.google.com/?q=15.34609,44.217407"
 },
 {
   "name": "محلات صالح علي قحطان للتجارة",
   "type": "جمله بدون فريق ",
   "phone": 777600919,
   "lat": 15.343117,
   "lng": 44.227465,
   "address": "حارة بن خلدون شارع برلين تقاطع شارع",
   "hours": "9 صباحاً - 9 مساءً",
   "link": "https://maps.google.com/?q=15.343117,44.227465"
 },
 {
   "name": "محلات احمد الرداعي واخوانه للتجارة",
   "type": "جمله بدون فريق ",
   "phone": 775506949,
   "lat": 15.340985,
   "lng": 44.224074,
   "address": "شارع خولان حارة بن خلدون بداية جسر",
   "hours": "9 صباحاً - 9 مساءً",
   "link": "https://maps.google.com/?q=15.340985,44.224074"
 },
 {
   "name": "محلات الثوابي للمواد الغذائية",
   "type": "جمله بدون فريق ",
   "phone": 770707190,
   "lat": 15.33571,
   "lng": 44.211329,
   "address": "الصافيه   جوار حراج الصافية",
   "hours": "9 صباحاً - 9 مساءً",
   "link": "https://maps.google.com/?q=15.33571,44.211329"
 },
 {
   "name": "مجمع بين قطينه التجاري",
   "type": "جمله بدون فريق ",
   "phone": 770594057,
   "lat": 15.457407,
   "lng": 43.786314,
   "address": "الطويله - بيت قطينه - فرع قرية بيت",
   "hours": "9 صباحاً - 9 مساءً",
   "link": "https://maps.google.com/?q=15.457407,43.786314"
 },
 {
   "name": "الورفي للتجارة",
   "type": "جمله بدون فريق ",
   "phone": 772555251,
   "lat": 15.309293,
   "lng": 44.190176,
   "address": "شارع حدة جوار مطعم الديوان",
   "hours": "9 صباحاً - 9 مساءً",
   "link": "https://maps.google.com/?q=15.309293,44.190176"
 },
 {
   "name": "المنصور للتجاره جمله .. تجزئه",
   "type": "جمله بدون فريق ",
   "phone": 777465348,
   "lat": 15.338665,
   "lng": 44.176825,
   "address": "شارع نوکشط جوار سوبر مرکت المدينه ا",
   "hours": "9 صباحاً - 9 مساءً",
   "link": "https://maps.google.com/?q=15.338665,44.176825"
 },
 {
   "name": "الكريمي للتجارة جمله تجزائة",
   "type": "جمله بدون فريق ",
   "phone": 777466119,
   "lat": 15.34131,
   "lng": 44.212703,
   "address": "البليلي جوار حمام الخاوي",
   "hours": "9 صباحاً - 9 مساءً",
   "link": "https://maps.google.com/?q=15.34131,44.212703"
 },
 {
   "name": "محلات ياسين الزريقي التجارية",
   "type": "جمله بدون فريق ",
   "phone": 777755808,
   "lat": 15.33796,
   "lng": 44.202445,
   "address": "شارع مجاهد جوار الفخري",
   "hours": "9 صباحاً - 9 مساءً",
   "link": "https://maps.google.com/?q=15.33796,44.202445"
 },
 {
   "name": "محلات الشعوبي التجارية",
   "type": "جمله بدون فريق ",
   "phone": 771355381,
   "lat": 15.338191,
   "lng": 44.184204,
   "address": "ش بغداد",
   "hours": "9 صباحاً - 9 مساءً",
   "link": "https://maps.google.com/?q=15.338191,44.184204"
 },
 {
   "name": "محلات الردماني",
   "type": "جمله بدون فريق ",
   "phone": 776584355,
   "lat": 15.338136,
   "lng": 44.172485,
   "address": "شلرع نوکشط امام جامع عذبان",
   "hours": "9 صباحاً - 9 مساءً",
   "link": "https://maps.google.com/?q=15.338136,44.172485"
 },
 {
   "name": "الاديمي للتجاره",
   "type": "جمله بدون فريق ",
   "phone": 771077016,
   "lat": 15.333955,
   "lng": 44.189087,
   "address": "شارع عمان جوار مسعود للصرافه",
   "hours": "9 صباحاً - 9 مساءً",
   "link": "https://maps.google.com/?q=15.333955,44.189087"
 },
 {
   "name": "مجمع الانوار",
   "type": "جمله بدون فريق ",
   "phone": 773370056,
   "lat": 15.32736,
   "lng": 44.187545,
   "address": "شارع جامعه اروى",
   "hours": "9 صباحاً - 9 مساءً",
   "link": "https://maps.google.com/?q=15.32736,44.187545"
 },
 {
   "name": "محلات الردماني",
   "type": "جمله بدون فريق ",
   "phone": 773475599,
   "lat": 15.33928,
   "lng": 44.179774,
   "address": "شارع المحروقات خلف صالة المراسيم",
   "hours": "9 صباحاً - 9 مساءً",
   "link": "https://maps.google.com/?q=15.33928,44.179774"
 },
 {
   "name": "محلات العديني",
   "type": "جمله بدون فريق ",
   "phone": 713120291,
   "lat": 15.332612,
   "lng": 44.184094,
   "address": "شارع بغداد مقابل المطعم الهندي",
   "hours": "9 صباحاً - 9 مساءً",
   "link": "https://maps.google.com/?q=15.332612,44.184094"
 },
 {
   "name": "محلات زيد العنسي",
   "type": "جمله بدون فريق ",
   "phone": 773950216,
   "lat": 15.3367,
   "lng": 44.184255,
   "address": "شارع بغداد جوار مستشفى المتوكل",
   "hours": "9 صباحاً - 9 مساءً",
   "link": "https://maps.google.com/?q=15.3367,44.184255"
 },
 {
   "name": "محلات الصادق للمواد الغذائيه جمله",
   "type": "جمله بدون فريق ",
   "phone": 772159809,
   "lat": 15.34075,
   "lng": 44.162402,
   "address": "عصر امام مطعم البرنس",
   "hours": "9 صباحاً - 9 مساءً",
   "link": "https://maps.google.com/?q=15.34075,44.162402"
 },
 {
   "name": "الحضرمي للمواد الغذائية والبلاستيك",
   "type": "جمله بدون فريق ",
   "phone": 774055251,
   "lat": 15.342111,
   "lng": 44.211019,
   "address": "شارع البليلي امام مسجد البليلي",
   "hours": "9 صباحاً - 9 مساءً",
   "link": "https://maps.google.com/?q=15.342111,44.211019"
 },
 {
   "name": "يوسف  ياسين للمواد الغذائيه",
   "type": "جمله بدون فريق ",
   "phone": 773555509,
   "lat": 15.338857,
   "lng": 44.169331,
   "address": "شارع الستين جوار مصرف اليمن البحرين",
   "hours": "9 صباحاً - 9 مساءً",
   "link": "https://maps.google.com/?q=15.338857,44.169331"
 },
 {
   "name": "الجراش للمواد الغذائية",
   "type": "جمله بدون فريق ",
   "phone": 775003074,
   "lat": 15.338402,
   "lng": 44.174376,
   "address": "شارع نوکشط امام مني مارکت الجفري",
   "hours": "9 صباحاً - 9 مساءً",
   "link": "https://maps.google.com/?q=15.338402,44.174376"
 },
 {
   "name": "السخيمي للمواد الغذائيه",
   "type": "جمله بدون فريق ",
   "phone": 777251897,
   "lat": 15.340444,
   "lng": 44.175312,
   "address": "حار ه سبلاس امام مستشفي سبلاس",
   "hours": "9 صباحاً - 9 مساءً",
   "link": "https://maps.google.com/?q=15.340444,44.175312"
 },
 {
   "name": "العليمي للتجاره العامه",
   "type": "جمله بدون فريق ",
   "phone": 775555928,
   "lat": 15.367202,
   "lng": 44.224701,
   "address": "شارع مسيك العام سوق القات بجانب مر",
   "hours": "9 صباحاً - 9 مساءً",
   "link": "https://maps.google.com/?q=15.367202,44.224701"
 },
 {
   "name": "الحبيشي للاستيراد وتسويق الاغذيه",
   "type": "جمله بدون فريق ",
   "phone": 999999999,
   "lat": 15.357202,
   "lng": 44.224383,
   "address": "شارع نقم بجوار مطعم المراوعه امام",
   "hours": "9 صباحاً - 9 مساءً",
   "link": "https://maps.google.com/?q=15.357202,44.224383"
 },
 {
   "name": "الاصبحي للتحارة للمواد الغذائية وال",
   "type": "جمله بدون فريق ",
   "phone": 777782950,
   "lat": 15.355989,
   "lng": 44.225798,
   "address": "نقم السوق المركزي",
   "hours": "9 صباحاً - 9 مساءً",
   "link": "https://maps.google.com/?q=15.355989,44.225798"
 },
 {
   "name": "موسسه امين الحباري الفرع",
   "type": "جمله بدون فريق ",
   "phone": 775333385,
   "lat": 15.458752,
   "lng": 44.268036,
   "address": "شارع مارب الحتارش مقابل مكتب ومعرض",
   "hours": "9 صباحاً - 9 مساءً",
   "link": "https://maps.google.com/?q=15.458752,44.268036"
 },
 {
   "name": "موسسه يحيى حمود العقر واخوانه",
   "type": "جمله بدون فريق ",
   "phone": 777995821,
   "lat": 15.475831,
   "lng": 44.285238,
   "address": "شارع الحتارش شارع مارب مقابل محمد",
   "hours": "9 صباحاً - 9 مساءً",
   "link": "https://maps.google.com/?q=15.475831,44.285238"
 },
 {
   "name": "مركز العاقل التجاري",
   "type": "جمله بدون فريق ",
   "phone": 777468457,
   "lat": 15.477986,
   "lng": 44.286864,
   "address": "شارع الحتارش خط مارب جوار مستشفى ا",
   "hours": "9 صباحاً - 9 مساءً",
   "link": "https://maps.google.com/?q=15.477986,44.286864"
 },
 {
   "name": "محلات احمد علي النصره",
   "type": "جمله بدون فريق ",
   "phone": 775588350,
   "lat": 15.180889,
   "lng": 43.976471,
   "address": "بني مطر سوق الامان",
   "hours": "9 صباحاً - 9 مساءً",
   "link": "https://maps.google.com/?q=15.180889,43.976471"
 },
 {
   "name": "محلات مقبل النصره التجارية",
   "type": "جمله بدون فريق ",
   "phone": 777341700,
   "lat": 15.180636,
   "lng": 43.976256,
   "address": "بني مطر سوق الامان",
   "hours": "9 صباحاً - 9 مساءً",
   "link": "https://maps.google.com/?q=15.180636,43.976256"
 },
 {
   "name": "محلات علي عبده جمعان",
   "type": "جمله بدون فريق ",
   "phone": 770691907,
   "lat": 15.179808,
   "lng": 43.97355,
   "address": "بني مطر سوق الامان",
   "hours": "9 صباحاً - 9 مساءً",
   "link": "https://maps.google.com/?q=15.179808,43.97355"
 },
 {
   "name": "محلات عبدالرقيب جمعان",
   "type": "جمله بدون فريق ",
   "phone": 773799224,
   "lat": 15.18006,
   "lng": 43.974062,
   "address": "بني مطر سوق الامان",
   "hours": "9 صباحاً - 9 مساءً",
   "link": "https://maps.google.com/?q=15.18006,43.974062"
 },
 {
   "name": "محلات عبد ربه عزمان",
   "type": "جمله بدون فريق ",
   "phone": 770279197,
   "lat": 15.180715,
   "lng": 43.977478,
   "address": "بني مطر سوق الامان",
   "hours": "9 صباحاً - 9 مساءً",
   "link": "https://maps.google.com/?q=15.180715,43.977478"
 },
 {
   "name": "محلات الدرعي للتجاره العامه",
   "type": "جمله بدون فريق ",
   "phone": 771050790,
   "lat": 15.338182,
   "lng": 44.120964,
   "address": "الصباحه",
   "hours": "9 صباحاً - 9 مساءً",
   "link": "https://maps.google.com/?q=15.338182,44.120964"
 },
 {
   "name": "محلات غمدان المريحي",
   "type": "جمله بدون فريق ",
   "phone": 774437048,
   "lat": 15.283594,
   "lng": 44.059551,
   "address": "راس مند",
   "hours": "9 صباحاً - 9 مساءً",
   "link": "https://maps.google.com/?q=15.283594,44.059551"
 },
 {
   "name": "محلات نبيل الردماني",
   "type": "جمله بدون فريق ",
   "phone": 776002203,
   "lat": 15.37175,
   "lng": 43.969078,
   "address": "بني مطر مفرق بني النمري",
   "hours": "9 صباحاً - 9 مساءً",
   "link": "https://maps.google.com/?q=15.37175,43.969078"
 },
 {
   "name": "البرحاني للتجاره العامه",
   "type": "جمله بدون فريق ",
   "phone": 775106261,
   "lat": 15.371958,
   "lng": 43.968979,
   "address": "بني مطر مفرق بني النمري",
   "hours": "9 صباحاً - 9 مساءً",
   "link": "https://maps.google.com/?q=15.371958,43.968979"
 },
 {
   "name": "محلات نجيب الزبيري للتجاره العامه",
   "type": "جمله بدون فريق ",
   "phone": 773524632,
   "lat": 15.34667,
   "lng": 43.987412,
   "address": "بني مطر المسيب",
   "hours": "9 صباحاً - 9 مساءً",
   "link": "https://maps.google.com/?q=15.34667,43.987412"
 },
 {
   "name": "محلات الحبابي",
   "type": "جمله بدون فريق ",
   "phone": 772023093,
   "lat": 15.359472,
   "lng": 43.978502,
   "address": "بني مطر المسيب",
   "hours": "9 صباحاً - 9 مساءً",
   "link": "https://maps.google.com/?q=15.359472,43.978502"
 },
 {
   "name": "محلات صادق مصلح واخوانه",
   "type": "جمله بدون فريق ",
   "phone": 770017404,
   "lat": 15.37009,
   "lng": 43.969417,
   "address": "بني مطر مفرق بني النمري",
   "hours": "9 صباحاً - 9 مساءً",
   "link": "https://maps.google.com/?q=15.37009,43.969417"
 },
 {
   "name": "محلات الخير التجارية",
   "type": "جمله بدون فريق ",
   "phone": 773749996,
   "lat": 15.371239,
   "lng": 43.968974,
   "address": "بني مطر مفرق بني النمري",
   "hours": "9 صباحاً - 9 مساءً",
   "link": "https://maps.google.com/?q=15.371239,43.968974"
 },
 {
   "name": "محلات عبد القوي ناجي عزمان",
   "type": "جمله بدون فريق ",
   "phone": 777178850,
   "lat": 15.18099,
   "lng": 43.976338,
   "address": "بني مطر سوق الامان",
   "hours": "9 صباحاً - 9 مساءً",
   "link": "https://maps.google.com/?q=15.18099,43.976338"
 },
 {
   "name": "محلات يحيى مقبل النصره",
   "type": "جمله بدون فريق ",
   "phone": 777770320,
   "lat": 15.180672,
   "lng": 43.976429,
   "address": "بني مطر سوق الامان",
   "hours": "9 صباحاً - 9 مساءً",
   "link": "https://maps.google.com/?q=15.180672,43.976429"
 },
 {
   "name": "محلات طه المريحي واخوانه",
   "type": "جمله بدون فريق ",
   "phone": 773778379,
   "lat": 15.28369,
   "lng": 44.059296,
   "address": "راس مند",
   "hours": "9 صباحاً - 9 مساءً",
   "link": "https://maps.google.com/?q=15.28369,44.059296"
 },
 {
   "name": "محلات زوبر واخيه",
   "type": "جمله بدون فريق ",
   "phone": 771209019,
   "lat": 15.283338,
   "lng": 44.058401,
   "address": "راس مند",
   "hours": "9 صباحاً - 9 مساءً",
   "link": "https://maps.google.com/?q=15.283338,44.058401"
 },
 {
   "name": "السلام للتجاره العامه",
   "type": "جمله بدون فريق ",
   "phone": 777583325,
   "lat": 15.263095,
   "lng": 44.036247,
   "address": "قاع سهمان",
   "hours": "9 صباحاً - 9 مساءً",
   "link": "https://maps.google.com/?q=15.263095,44.036247"
 },
 {
   "name": "محلات خصروف التجارية",
   "type": "جمله بدون فريق ",
   "phone": 777214630,
   "lat": 15.262845,
   "lng": 44.036281,
   "address": "قاع سهمان",
   "hours": "9 صباحاً - 9 مساءً",
   "link": "https://maps.google.com/?q=15.262845,44.036281"
 },
 {
   "name": "محلات مختار حميد شيبان",
   "type": "جمله بدون فريق ",
   "phone": 777225394,
   "lat": 15.256771,
   "lng": 44.029622,
   "address": "متنه الشارع العام",
   "hours": "9 صباحاً - 9 مساءً",
   "link": "https://maps.google.com/?q=15.256771,44.029622"
 },
 {
   "name": "محلات عبدالله حمود شيبان",
   "type": "جمله بدون فريق ",
   "phone": 777938218,
   "lat": 15.256581,
   "lng": 44.029464,
   "address": "متنه الشارع العام",
   "hours": "9 صباحاً - 9 مساءً",
   "link": "https://maps.google.com/?q=15.256581,44.029464"
 },
 {
   "name": "محلات البيحاني التجارية",
   "type": "جمله بدون فريق ",
   "phone": 773931898,
   "lat": 15.254353,
   "lng": 44.027047,
   "address": "متنه الشارع العام",
   "hours": "9 صباحاً - 9 مساءً",
   "link": "https://maps.google.com/?q=15.254353,44.027047"
 },
 {
   "name": "محلات علي يحيى حمران",
   "type": "جمله بدون فريق ",
   "phone": 773152225,
   "lat": 15.253666,
   "lng": 44.026141,
   "address": "متنه الشارع العام",
   "hours": "9 صباحاً - 9 مساءً",
   "link": "https://maps.google.com/?q=15.253666,44.026141"
 },
 {
   "name": "محلات يحيى حمران",
   "type": "جمله بدون فريق ",
   "phone": 777074844,
   "lat": 15.253592,
   "lng": 44.026133,
   "address": "متنه الشارع العام",
   "hours": "9 صباحاً - 9 مساءً",
   "link": "https://maps.google.com/?q=15.253592,44.026133"
 },
 {
   "name": "محلات المريحي التجارية",
   "type": "جمله بدون فريق ",
   "phone": 774805478,
   "lat": 15.252982,
   "lng": 44.025645,
   "address": "متنه الشارع العام",
   "hours": "9 صباحاً - 9 مساءً",
   "link": "https://maps.google.com/?q=15.252982,44.025645"
 },
 {
   "name": "محلات حميد سنبل",
   "type": "جمله بدون فريق ",
   "phone": 772934324,
   "lat": 15.252786,
   "lng": 44.025505,
   "address": "متنه الشارع العام",
   "hours": "9 صباحاً - 9 مساءً",
   "link": "https://maps.google.com/?q=15.252786,44.025505"
 },
 {
   "name": "محلات إبراهيم الشعباني",
   "type": "جمله بدون فريق ",
   "phone": 774001315,
   "lat": 15.252393,
   "lng": 44.024927,
   "address": "متنه الشارع العام",
   "hours": "9 صباحاً - 9 مساءً",
   "link": "https://maps.google.com/?q=15.252393,44.024927"
 },
 {
   "name": "يحيى حمران للتجاره العامه",
   "type": "جمله بدون فريق ",
   "phone": 777257039,
   "lat": 15.252115,
   "lng": 44.02468,
   "address": "متنه الشارع العام",
   "hours": "9 صباحاً - 9 مساءً",
   "link": "https://maps.google.com/?q=15.252115,44.02468"
 },
 {
   "name": "محلات القطاش التجارية",
   "type": "جمله بدون فريق ",
   "phone": 773687888,
   "lat": 15.251348,
   "lng": 44.023469,
   "address": "متنه الشارع العام",
   "hours": "9 صباحاً - 9 مساءً",
   "link": "https://maps.google.com/?q=15.251348,44.023469"
 },
 {
   "name": "محلات الرازقي للتجاره العامه",
   "type": "جمله بدون فريق ",
   "phone": 772883805,
   "lat": 15.250831,
   "lng": 44.022746,
   "address": "متنه الشارع العام",
   "hours": "9 صباحاً - 9 مساءً",
   "link": "https://maps.google.com/?q=15.250831,44.022746"
 },
 {
   "name": "محلات الخير",
   "type": "جمله بدون فريق ",
   "phone": 775506235,
   "lat": 15.250593,
   "lng": 44.022505,
   "address": "متنه الشارع العام",
   "hours": "9 صباحاً - 9 مساءً",
   "link": "https://maps.google.com/?q=15.250593,44.022505"
 },
 {
   "name": "محلات التوكل على الله",
   "type": "جمله بدون فريق ",
   "phone": 776135665,
   "lat": 15.251048,
   "lng": 44.023521,
   "address": "متنه الشارع العام",
   "hours": "9 صباحاً - 9 مساءً",
   "link": "https://maps.google.com/?q=15.251048,44.023521"
 },
 {
   "name": "محلات علي بن علي محمود واولاده",
   "type": "جمله بدون فريق ",
   "phone": 774806302,
   "lat": 15.251019,
   "lng": 44.023528,
   "address": "متنه الشارع العام",
   "hours": "9 صباحاً - 9 مساءً",
   "link": "https://maps.google.com/?q=15.251019,44.023528"
 },
 {
   "name": "محلات الخير والبركه",
   "type": "جمله بدون فريق ",
   "phone": 770088203,
   "lat": 15.250131,
   "lng": 44.02218,
   "address": "متنه الشارع العام",
   "hours": "9 صباحاً - 9 مساءً",
   "link": "https://maps.google.com/?q=15.250131,44.02218"
 },
 {
   "name": "محلات السواري التجارية",
   "type": "جمله بدون فريق ",
   "phone": 777740572,
   "lat": 15.249089,
   "lng": 44.020591,
   "address": "متنه الشارع العام",
   "hours": "9 صباحاً - 9 مساءً",
   "link": "https://maps.google.com/?q=15.249089,44.020591"
 },
 {
   "name": "محلات نعمان جمعان",
   "type": "جمله بدون فريق ",
   "phone": 773547784,
   "lat": 15.247802,
   "lng": 44.018303,
   "address": "متنه الشارع العام",
   "hours": "9 صباحاً - 9 مساءً",
   "link": "https://maps.google.com/?q=15.247802,44.018303"
 },
 {
   "name": "محلات محمد احمد جمعان واولاده",
   "type": "جمله بدون فريق ",
   "phone": 777382563,
   "lat": 15.247753,
   "lng": 44.018376,
   "address": "متنه الشارع العام",
   "hours": "9 صباحاً - 9 مساءً",
   "link": "https://maps.google.com/?q=15.247753,44.018376"
 },
 {
   "name": "امين مريط واخوانه للتجاره العامه",
   "type": "جمله بدون فريق ",
   "phone": 773425475,
   "lat": 15.247379,
   "lng": 44.01842,
   "address": "متنه الشارع العام",
   "hours": "9 صباحاً - 9 مساءً",
   "link": "https://maps.google.com/?q=15.247379,44.01842"
 },
 {
   "name": "محلات احمد علي خصروف",
   "type": "جمله بدون فريق ",
   "phone": 770950098,
   "lat": 15.247586,
   "lng": 44.018314,
   "address": "متنه الشارع العام",
   "hours": "9 صباحاً - 9 مساءً",
   "link": "https://maps.google.com/?q=15.247586,44.018314"
 },
 {
   "name": "محلات قاصد كريم",
   "type": "جمله بدون فريق ",
   "phone": 771631949,
   "lat": 15.199343,
   "lng": 43.984228,
   "address": "بني مطر بوعان",
   "hours": "9 صباحاً - 9 مساءً",
   "link": "https://maps.google.com/?q=15.199343,43.984228"
 },
 {
   "name": "محلات احمد علي مطر",
   "type": "جمله بدون فريق ",
   "phone": 774233924,
   "lat": 15.199489,
   "lng": 43.984336,
   "address": "بني مطر بوعان",
   "hours": "9 صباحاً - 9 مساءً",
   "link": "https://maps.google.com/?q=15.199489,43.984336"
 },
 {
   "name": "محلات فضل احمد حمود شيبان",
   "type": "جمله بدون فريق ",
   "phone": 773498812,
   "lat": 15.252842,
   "lng": 44.025828,
   "address": "متنه الشارع العام",
   "hours": "9 صباحاً - 9 مساءً",
   "link": "https://maps.google.com/?q=15.252842,44.025828"
 },
 {
   "name": "محلات احمد حمود الصلاحي",
   "type": "جمله بدون فريق ",
   "phone": 774257355,
   "lat": 15.338984,
   "lng": 44.116448,
   "address": "الصباحه السوق",
   "hours": "9 صباحاً - 9 مساءً",
   "link": "https://maps.google.com/?q=15.338984,44.116448"
 },
 {
   "name": "محلات البياضي",
   "type": "جمله بدون فريق ",
   "phone": 770344123,
   "lat": 15.33945,
   "lng": 44.115178,
   "address": "الصباحه السوق",
   "hours": "9 صباحاً - 9 مساءً",
   "link": "https://maps.google.com/?q=15.33945,44.115178"
 },
 {
   "name": "محلات بن حترش",
   "type": "جمله بدون فريق ",
   "phone": 770007593,
   "lat": 15.33906,
   "lng": 44.113627,
   "address": "الصباحه السوق",
   "hours": "9 صباحاً - 9 مساءً",
   "link": "https://maps.google.com/?q=15.33906,44.113627"
 },
 {
   "name": "محلات الصلاحي",
   "type": "جمله بدون فريق ",
   "phone": 770944223,
   "lat": 15.337964,
   "lng": 44.116948,
   "address": "الصباحه السوق القديم",
   "hours": "9 صباحاً - 9 مساءً",
   "link": "https://maps.google.com/?q=15.337964,44.116948"
 },
 {
   "name": "محلات اللكمي",
   "type": "جمله بدون فريق ",
   "phone": 770460022,
   "lat": 15.337943,
   "lng": 44.117043,
   "address": "الصباحه السوق القديم",
   "hours": "9 صباحاً - 9 مساءً",
   "link": "https://maps.google.com/?q=15.337943,44.117043"
 },
 {
   "name": "محلات عادل للتجاره",
   "type": "جمله بدون فريق ",
   "phone": 770354043,
   "lat": 15.338047,
   "lng": 44.117206,
   "address": "الصباحه السوق القديم",
   "hours": "9 صباحاً - 9 مساءً",
   "link": "https://maps.google.com/?q=15.338047,44.117206"
 },
 {
   "name": "محلات نور الدين الجعدبي",
   "type": "جمله بدون فريق ",
   "phone": 777836704,
   "lat": 15.302912,
   "lng": 44.079687,
   "address": "المساجد خط الميه",
   "hours": "9 صباحاً - 9 مساءً",
   "link": "https://maps.google.com/?q=15.302912,44.079687"
 },
 {
   "name": "محلات البيحاني للتجاره العامه",
   "type": "جمله بدون فريق ",
   "phone": 770537607,
   "lat": 15.274654,
   "lng": 44.048288,
   "address": "سهمان",
   "hours": "9 صباحاً - 9 مساءً",
   "link": "https://maps.google.com/?q=15.274654,44.048288"
 },
 {
   "name": "مركز منصور ذيبان النمري وأولاده للت",
   "type": "جمله بدون فريق ",
   "phone": 777741749,
   "lat": 15.274489,
   "lng": 44.047916,
   "address": "سهمان",
   "hours": "9 صباحاً - 9 مساءً",
   "link": "https://maps.google.com/?q=15.274489,44.047916"
 },
 {
   "name": "محلات صالح علي الدرعي وأولاده",
   "type": "جمله بدون فريق ",
   "phone": 777500685,
   "lat": 15.274447,
   "lng": 44.048006,
   "address": "سهمان",
   "hours": "9 صباحاً - 9 مساءً",
   "link": "https://maps.google.com/?q=15.274447,44.048006"
 },
 {
   "name": "محلات الردماني للتجاره العامه",
   "type": "جمله بدون فريق ",
   "phone": 772241556,
   "lat": 15.27429,
   "lng": 44.047891,
   "address": "سهمان",
   "hours": "9 صباحاً - 9 مساءً",
   "link": "https://maps.google.com/?q=15.27429,44.047891"
 },
 {
   "name": "محلات شلال بني مطر",
   "type": "جمله بدون فريق ",
   "phone": 739511539,
   "lat": 15.274299,
   "lng": 44.047785,
   "address": "سهمان",
   "hours": "9 صباحاً - 9 مساءً",
   "link": "https://maps.google.com/?q=15.274299,44.047785"
 },
 {
   "name": "محلات سمير المريحي وإخوانه للتجاره",
   "type": "جمله بدون فريق ",
   "phone": 775009769,
   "lat": 15.273906,
   "lng": 44.047486,
   "address": "سهمان",
   "hours": "9 صباحاً - 9 مساءً",
   "link": "https://maps.google.com/?q=15.273906,44.047486"
 },
 {
   "name": "محلات منصور محمد شيبان واولاده للتج",
   "type": "جمله بدون فريق ",
   "phone": 777517682,
   "lat": 15.255008,
   "lng": 44.027786,
   "address": "متنه",
   "hours": "9 صباحاً - 9 مساءً",
   "link": "https://maps.google.com/?q=15.255008,44.027786"
 },
 {
   "name": "محلات صالح محمد شيبان",
   "type": "جمله بدون فريق ",
   "phone": 775041034,
   "lat": 15.254759,
   "lng": 44.027701,
   "address": "متنه الشارع العام",
   "hours": "9 صباحاً - 9 مساءً",
   "link": "https://maps.google.com/?q=15.254759,44.027701"
 },
 {
   "name": "محلات احمد علي شيبان وأولاده",
   "type": "جمله بدون فريق ",
   "phone": 775005738,
   "lat": 15.254722,
   "lng": 44.027631,
   "address": "متنه الشارع العام",
   "hours": "9 صباحاً - 9 مساءً",
   "link": "https://maps.google.com/?q=15.254722,44.027631"
 },
 {
   "name": "محلات الهرش التجاريه",
   "type": "جمله بدون فريق ",
   "phone": 770722058,
   "lat": 15.253761,
   "lng": 44.02672,
   "address": "متنه الشارع العام",
   "hours": "9 صباحاً - 9 مساءً",
   "link": "https://maps.google.com/?q=15.253761,44.02672"
 },
 {
   "name": "محلات نصر حمود شيبان للتجاره العامه",
   "type": "جمله بدون فريق ",
   "phone": 777311797,
   "lat": 15.253144,
   "lng": 44.026051,
   "address": "متنه",
   "hours": "9 صباحاً - 9 مساءً",
   "link": "https://maps.google.com/?q=15.253144,44.026051"
 },
 {
   "name": "محلات بكيل حمود شيبان للتجاره العام",
   "type": "جمله بدون فريق ",
   "phone": 770271515,
   "lat": 15.252808,
   "lng": 44.025867,
   "address": "متنه الشارع العام",
   "hours": "9 صباحاً - 9 مساءً",
   "link": "https://maps.google.com/?q=15.252808,44.025867"
 },
 {
   "name": "محلات الهريشه",
   "type": "جمله بدون فريق ",
   "phone": 776666026,
   "lat": 15.33759,
   "lng": 44.115719,
   "address": "الصباحه السوق القديم",
   "hours": "9 صباحاً - 9 مساءً",
   "link": "https://maps.google.com/?q=15.33759,44.115719"
 },
 {
   "name": "محلات سمير لطف الله الريدي واخوانه",
   "type": "جمله بدون فريق ",
   "phone": 770004837,
   "lat": 15.33782,
   "lng": 44.116668,
   "address": "الصباحه السوق القديم",
   "hours": "9 صباحاً - 9 مساءً",
   "link": "https://maps.google.com/?q=15.33782,44.116668"
 },
 {
   "name": "محلات قايد علي الدرعي",
   "type": "جمله بدون فريق ",
   "phone": 770245963,
   "lat": 15.337266,
   "lng": 44.114289,
   "address": "الصباحه السوق القديم",
   "hours": "9 صباحاً - 9 مساءً",
   "link": "https://maps.google.com/?q=15.337266,44.114289"
 },
 {
   "name": "محلات المختار لبيع المواد الغذائية",
   "type": "جمله بدون فريق ",
   "phone": 775108056,
   "lat": 15.30547,
   "lng": 44.079718,
   "address": "المساجد",
   "hours": "9 صباحاً - 9 مساءً",
   "link": "https://maps.google.com/?q=15.30547,44.079718"
 },
 {
   "name": "مجمع الأقصى التجاري",
   "type": "جمله بدون فريق ",
   "phone": 774825661,
   "lat": 15.461591,
   "lng": 44.165414,
   "address": "شارع عمران جدر مقابل القيفي للتجارة",
   "hours": "9 صباحاً - 9 مساءً",
   "link": "https://maps.google.com/?q=15.461591,44.165414"
 },
 {
   "name": "الخلقي للتجارة",
   "type": "جمله بدون فريق ",
   "phone": 773335737,
   "lat": 15.428249,
   "lng": 44.222851,
   "address": "الروضه بجانب المؤسسة الاقتصاديه",
   "hours": "9 صباحاً - 9 مساءً",
   "link": "https://maps.google.com/?q=15.428249,44.222851"
 },
 {
   "name": "الحيمي للتجاره العامه",
   "type": "جمله بدون فريق ",
   "phone": 772258489,
   "lat": 15.444989,
   "lng": 44.229877,
   "address": "الروضه شارع زايد جوار محلات دلال",
   "hours": "9 صباحاً - 9 مساءً",
   "link": "https://maps.google.com/?q=15.444989,44.229877"
 },
 {
   "name": "محلات هاشم الشميري  التجاريه",
   "type": "جمله بدون فريق ",
   "phone": 770390304,
   "lat": 15.433541,
   "lng": 44.213729,
   "address": "شارع المطار دارس جوار سوق دارس للقا",
   "hours": "9 صباحاً - 9 مساءً",
   "link": "https://maps.google.com/?q=15.433541,44.213729"
 },
 {
   "name": "الظفيري لتجارة المواد الغذائية",
   "type": "جمله بدون فريق ",
   "phone": 774671115,
   "lat": 15.446835,
   "lng": 44.228301,
   "address": "الشارع الجديد حارة بئر السيد شمال",
   "hours": "9 صباحاً - 9 مساءً",
   "link": "https://maps.google.com/?q=15.446835,44.228301"
 },
 {
   "name": "الحمادي للتجارة",
   "type": "جمله بدون فريق ",
   "phone": 775521499,
   "lat": 15.305443,
   "lng": 44.17819,
   "address": "شارع السلامي",
   "hours": "9 صباحاً - 9 مساءً",
   "link": "https://maps.google.com/?q=15.305443,44.17819"
 },
 {
   "name": "محلات عمار سلاب واخوانه للتجارة الع",
   "type": "جمله بدون فريق ",
   "phone": 777786526,
   "lat": 15.273577,
   "lng": 44.211092,
   "address": "شارع الخمسين تقاطع أربع وعشرين جوار",
   "hours": "9 صباحاً - 9 مساءً",
   "link": "https://maps.google.com/?q=15.273577,44.211092"
 },
 {
   "name": "محلات علي العشاري التجارية",
   "type": "جمله بدون فريق ",
   "phone": 777960529,
   "lat": 15.280904,
   "lng": 44.2459,
   "address": "شارع تعز جوله دارسلم",
   "hours": "9 صباحاً - 9 مساءً",
   "link": "https://maps.google.com/?q=15.280904,44.2459"
 },
 {
   "name": "محلات كمال حجر التجارية",
   "type": "جمله بدون فريق ",
   "phone": 777395008,
   "lat": 15.282575,
   "lng": 44.267908,
   "address": "جولة الحثيلي",
   "hours": "9 صباحاً - 9 مساءً",
   "link": "https://maps.google.com/?q=15.282575,44.267908"
 },
 {
   "name": "محلات حي الحثيلي",
   "type": "جمله بدون فريق ",
   "phone": 776330058,
   "lat": 15.282565,
   "lng": 44.269062,
   "address": "جولة الحثيلي",
   "hours": "9 صباحاً - 9 مساءً",
   "link": "https://maps.google.com/?q=15.282565,44.269062"
 },
 {
   "name": "محلات علان التجارية",
   "type": "جمله بدون فريق ",
   "phone": 777521215,
   "lat": 15.281778,
   "lng": 44.266205,
   "address": "جولة الحثيلي",
   "hours": "9 صباحاً - 9 مساءً",
   "link": "https://maps.google.com/?q=15.281778,44.266205"
 },
 {
   "name": "محلات محمد عبدالله المطري",
   "type": "جمله بدون فريق ",
   "phone": 770495188,
   "lat": 15.279933,
   "lng": 44.253602,
   "address": "خط الحثيلي دار سلم",
   "hours": "9 صباحاً - 9 مساءً",
   "link": "https://maps.google.com/?q=15.279933,44.253602"
 },
 {
   "name": "الريان للتجاره العامه",
   "type": "جمله بدون فريق ",
   "phone": 777836716,
   "lat": 15.267627,
   "lng": 44.226175,
   "address": "حي الشباب شارع 24 تقاطع الثلاثين",
   "hours": "9 صباحاً - 9 مساءً",
   "link": "https://maps.google.com/?q=15.267627,44.226175"
 },
 {
   "name": "متاش للتجارة العامه",
   "type": "جمله بدون فريق ",
   "phone": 774452167,
   "lat": 15.283635,
   "lng": 44.274623,
   "address": "الحثيلي هيلانه",
   "hours": "9 صباحاً - 9 مساءً",
   "link": "https://maps.google.com/?q=15.283635,44.274623"
 },
 {
   "name": "فرع محلات امين مصلح",
   "type": "جمله بدون فريق ",
   "phone": 770387539,
   "lat": 15.280676,
   "lng": 44.245074,
   "address": "شارع تعز دارسلم",
   "hours": "9 صباحاً - 9 مساءً",
   "link": "https://maps.google.com/?q=15.280676,44.245074"
 },
 {
   "name": "الحطامي رواني اخوان",
   "type": "جمله بدون فريق ",
   "phone": 775213264,
   "lat": 15.265292,
   "lng": 44.217485,
   "address": "جولة ارتل",
   "hours": "9 صباحاً - 9 مساءً",
   "link": "https://maps.google.com/?q=15.265292,44.217485"
 },
 {
   "name": "محمد عبدالقوي الحبيشي للتجارة",
   "type": "جمله بدون فريق ",
   "phone": 772701984,
   "lat": 15.229648,
   "lng": 44.251323,
   "address": "حزيز امام مركز الرحمه",
   "hours": "9 صباحاً - 9 مساءً",
   "link": "https://maps.google.com/?q=15.229648,44.251323"
 },
 {
   "name": "محلات الضاوي للتجارة العامه",
   "type": "جمله بدون فريق ",
   "phone": 774239205,
   "lat": 15.266284,
   "lng": 44.217717,
   "address": "شارع الخمسين ارتل",
   "hours": "9 صباحاً - 9 مساءً",
   "link": "https://maps.google.com/?q=15.266284,44.217717"
 },
 {
   "name": "محلات الحزب للتجارة العامه",
   "type": "جمله بدون فريق ",
   "phone": 771500395,
   "lat": 15.268298,
   "lng": 44.217012,
   "address": "شارع الخمسين ارتل",
   "hours": "9 صباحاً - 9 مساءً",
   "link": "https://maps.google.com/?q=15.268298,44.217012"
 },
 {
   "name": "اخوان سيف للتجاره جمله",
   "type": "جمله بدون فريق ",
   "phone": 774477439,
   "lat": 15.268172,
   "lng": 44.254522,
   "address": "المقالح دار سلم",
   "hours": "9 صباحاً - 9 مساءً",
   "link": "https://maps.google.com/?q=15.268172,44.254522"
 },
 {
   "name": "الريان للتجاره العامه جمله وتجزئه",
   "type": "جمله بدون فريق ",
   "phone": 777994907,
   "lat": 15.267557,
   "lng": 44.226181,
   "address": "حي الشباب",
   "hours": "9 صباحاً - 9 مساءً",
   "link": "https://maps.google.com/?q=15.267557,44.226181"
 },
 {
   "name": "محلات الحواتي",
   "type": "جمله بدون فريق ",
   "phone": 777242916,
   "lat": 15.269555,
   "lng": 44.230938,
   "address": "شارع 24 اللكمة حي الشباب",
   "hours": "9 صباحاً - 9 مساءً",
   "link": "https://maps.google.com/?q=15.269555,44.230938"
 },
 {
   "name": "محلات احمد صالح وأولاده",
   "type": "جمله بدون فريق ",
   "phone": 777145031,
   "lat": 15.264734,
   "lng": 44.226226,
   "address": "شارع الثلاثين تقاطع شارع 24 اللكمة",
   "hours": "9 صباحاً - 9 مساءً",
   "link": "https://maps.google.com/?q=15.264734,44.226226"
 },
 {
   "name": "محلات الأخوين",
   "type": "جمله بدون فريق ",
   "phone": 773761772,
   "lat": 15.267109,
   "lng": 44.229291,
   "address": "حي اللكمة غرب فندق اللهبي",
   "hours": "9 صباحاً - 9 مساءً",
   "link": "https://maps.google.com/?q=15.267109,44.229291"
 },
 {
   "name": "محلات النهاري للتجارة العامة",
   "type": "جمله بدون فريق ",
   "phone": 777268208,
   "lat": 15.31075,
   "lng": 44.242687,
   "address": "جولة الخفجي",
   "hours": "9 صباحاً - 9 مساءً",
   "link": "https://maps.google.com/?q=15.31075,44.242687"
 },
 {
   "name": "ابو علي",
   "type": "جمله بدون فريق ",
   "phone": 711707747,
   "lat": 15.289514,
   "lng": 44.23184,
   "address": "حاره المهندسين",
   "hours": "9 صباحاً - 9 مساءً",
   "link": "https://maps.google.com/?q=15.289514,44.23184"
 },
 {
   "name": "محلات عماد الوصابي للمواد الغذائية",
   "type": "جمله بدون فريق ",
   "phone": 770713375,
   "lat": 15.269919,
   "lng": 44.231531,
   "address": "اللكمة بيت بوس",
   "hours": "9 صباحاً - 9 مساءً",
   "link": "https://maps.google.com/?q=15.269919,44.231531"
 },
 {
   "name": "محلات الخلجي للمواد الغذائية",
   "type": "جمله بدون فريق ",
   "phone": 772927427,
   "lat": 15.282118,
   "lng": 44.266683,
   "address": "جولة الحثيلي",
   "hours": "9 صباحاً - 9 مساءً",
   "link": "https://maps.google.com/?q=15.282118,44.266683"
 },
 {
   "name": "مؤسسة الشوخي التجارية",
   "type": "جمله بدون فريق ",
   "phone": 777313378,
   "lat": 15.463477,
   "lng": 43.866438,
   "address": "الاهجر - سوق باديه",
   "hours": "9 صباحاً - 9 مساءً",
   "link": "https://maps.google.com/?q=15.463477,43.866438"
 },
 {
   "name": "محل حسين العذري",
   "type": "جمله بدون فريق ",
   "phone": 770166317,
   "lat": 15.463217,
   "lng": 43.881743,
   "address": "خط الاهجر ـ جوار محطه الحريبي",
   "hours": "9 صباحاً - 9 مساءً",
   "link": "https://maps.google.com/?q=15.463217,43.881743"
 },
 {
   "name": "محلات السياغي",
   "type": "جمله بدون فريق ",
   "phone": 772601095,
   "lat": 15.392466,
   "lng": 44.231542,
   "address": "شارع النصر جوار شركة الحجري للصرافه",
   "hours": "9 صباحاً - 9 مساءً",
   "link": "https://maps.google.com/?q=15.392466,44.231542"
 },
 {
   "name": "محلات الحداء للتجارة",
   "type": "جمله بدون فريق ",
   "phone": 772302444,
   "lat": 15.374808,
   "lng": 44.244594,
   "address": "شارع الاربعين سعوان",
   "hours": "9 صباحاً - 9 مساءً",
   "link": "https://maps.google.com/?q=15.374808,44.244594"
 },
 {
   "name": "محلات الخير",
   "type": "جمله بدون فريق ",
   "phone": 711939612,
   "lat": 15.366238,
   "lng": 44.214349,
   "address": "شعوب الصياح",
   "hours": "9 صباحاً - 9 مساءً",
   "link": "https://maps.google.com/?q=15.366238,44.214349"
 },
 {
   "name": "محلات الفخري",
   "type": "جمله بدون فريق ",
   "phone": 778250260,
   "lat": 15.385523,
   "lng": 44.237488,
   "address": "سعوان شارع 24 حاره المراون",
   "hours": "9 صباحاً - 9 مساءً",
   "link": "https://maps.google.com/?q=15.385523,44.237488"
 },
 {
   "name": "محلات المحسن للتجاره",
   "type": "جمله بدون فريق ",
   "phone": 777778218,
   "lat": 15.379278,
   "lng": 44.214262,
   "address": "شارع الجمهوريه جولة الحباري",
   "hours": "9 صباحاً - 9 مساءً",
   "link": "https://maps.google.com/?q=15.379278,44.214262"
 },
 {
   "name": "محلات عرفات اخوان",
   "type": "جمله بدون فريق ",
   "phone": 773330128,
   "lat": 15.383067,
   "lng": 44.232851,
   "address": "جوله النصر بدايه شارع الاربعين",
   "hours": "9 صباحاً - 9 مساءً",
   "link": "https://maps.google.com/?q=15.383067,44.232851"
 },
 {
   "name": "محلات الرعيني التجاريه",
   "type": "جمله بدون فريق ",
   "phone": 770050555,
   "lat": 15.386213,
   "lng": 44.222405,
   "address": "شارع مارب بجانب القطاع للوز والزبيب",
   "hours": "9 صباحاً - 9 مساءً",
   "link": "https://maps.google.com/?q=15.386213,44.222405"
 },
 {
   "name": "محلات الهمداني للتجاره العامة",
   "type": "جمله بدون فريق ",
   "phone": 773934996,
   "lat": 15.403951,
   "lng": 44.217267,
   "address": "شارع الجراف جوار مستشفي المؤيد",
   "hours": "9 صباحاً - 9 مساءً",
   "link": "https://maps.google.com/?q=15.403951,44.217267"
 },
 {
   "name": "محلات الهجري التجاريه",
   "type": "جمله بدون فريق ",
   "phone": 770332354,
   "lat": 15.410661,
   "lng": 44.216417,
   "address": "شارع النصر جوار معرض ركن المطار",
   "hours": "9 صباحاً - 9 مساءً",
   "link": "https://maps.google.com/?q=15.410661,44.216417"
 },
 {
   "name": "محلات القرواني التجاريه لبيع جميع ا",
   "type": "جمله بدون فريق ",
   "phone": 770505714,
   "lat": 15.384063,
   "lng": 44.221022,
   "address": "شارع مارب بجانب ميزان ومكبس فايز ا",
   "hours": "9 صباحاً - 9 مساءً",
   "link": "https://maps.google.com/?q=15.384063,44.221022"
 },
 {
   "name": "مجمع التركي",
   "type": "جمله بدون فريق ",
   "phone": 777740018,
   "lat": 15.386579,
   "lng": 44.237312,
   "address": "سعوان شارع 24 المراون مقابل شركه ا",
   "hours": "9 صباحاً - 9 مساءً",
   "link": "https://maps.google.com/?q=15.386579,44.237312"
 },
 {
   "name": "البحري اخوان للتجارة العامة",
   "type": "جمله بدون فريق ",
   "phone": 775572225,
   "lat": 15.382632,
   "lng": 44.230105,
   "address": "شارع الجامعة العربية جوار الكريمي",
   "hours": "9 صباحاً - 9 مساءً",
   "link": "https://maps.google.com/?q=15.382632,44.230105"
 },
 {
   "name": "محلات البحري التجاريه",
   "type": "جمله بدون فريق ",
   "phone": 771206667,
   "lat": 15.398179,
   "lng": 44.213435,
   "address": "شارع المطار أمام الاتصالات",
   "hours": "9 صباحاً - 9 مساءً",
   "link": "https://maps.google.com/?q=15.398179,44.213435"
 },
 {
   "name": "مجمع بني حشيش",
   "type": "جمله بدون فريق ",
   "phone": 777334545,
   "lat": 15.382967,
   "lng": 44.220157,
   "address": "شارع مارب بجانب محطه شركه النفط رقم",
   "hours": "9 صباحاً - 9 مساءً",
   "link": "https://maps.google.com/?q=15.382967,44.220157"
 },
 {
   "name": "محمد غالب",
   "type": "جمله بدون فريق ",
   "phone": 773050008,
   "lat": 15.373208,
   "lng": 44.22201,
   "address": "شارع مطهر -مقابل صالة الامراء",
   "hours": "9 صباحاً - 9 مساءً",
   "link": "https://maps.google.com/?q=15.373208,44.22201"
 },
 {
   "name": "محمد مبارك /ابو توفيق",
   "type": "جمله بدون فريق ",
   "phone": 771989404,
   "lat": 15.379638,
   "lng": 44.221391,
   "address": "هبره على خط شعوب",
   "hours": "9 صباحاً - 9 مساءً",
   "link": "https://maps.google.com/?q=15.379638,44.221391"
 },
 {
   "name": "محلات مجاهد الجعدي للمواد الغذائية",
   "type": "جمله بدون فريق ",
   "phone": 773033081,
   "lat": 15.365367,
   "lng": 44.214133,
   "address": "شارع الصياح جوار ابو كنعان للصرافه",
   "hours": "9 صباحاً - 9 مساءً",
   "link": "https://maps.google.com/?q=15.365367,44.214133"
 },
 {
   "name": "محلات زاركون للمواد الغذائية",
   "type": "جمله بدون فريق ",
   "phone": 777237050,
   "lat": 15.367133,
   "lng": 44.213757,
   "address": "شارع الصياح امام الحمزي للتجاره",
   "hours": "9 صباحاً - 9 مساءً",
   "link": "https://maps.google.com/?q=15.367133,44.213757"
 },
 {
   "name": "محلات الغزى لتجاريه للمواد الغذائيه",
   "type": "جمله بدون فريق ",
   "phone": 775404044,
   "lat": 15.41057,
   "lng": 44.215035,
   "address": "شارع النصر جوله جسر الشايف",
   "hours": "9 صباحاً - 9 مساءً",
   "link": "https://maps.google.com/?q=15.41057,44.215035"
 },
 {
   "name": "اللواء الاخضر للتسوق",
   "type": "جمله بدون فريق ",
   "phone": 773168336,
   "lat": 15.351573,
   "lng": 44.185881,
   "address": "شارع ٢٠",
   "hours": "9 صباحاً - 9 مساءً",
   "link": "https://maps.google.com/?q=15.351573,44.185881"
 },
 {
   "name": "العباسي للتجاره",
   "type": "جمله بدون فريق ",
   "phone": 771513100,
   "lat": 15.360255,
   "lng": 44.162896,
   "address": "شارع السنينه شارع 24 جوار مستشفى إ",
   "hours": "9 صباحاً - 9 مساءً",
   "link": "https://maps.google.com/?q=15.360255,44.162896"
 },
 {
   "name": "محلات الحزمي للتجاره",
   "type": "جمله بدون فريق ",
   "phone": 777775188,
   "lat": 15.358828,
   "lng": 44.168441,
   "address": "شارع السنينه جوار محطه المفزر",
   "hours": "9 صباحاً - 9 مساءً",
   "link": "https://maps.google.com/?q=15.358828,44.168441"
 },
 {
   "name": "مرکزالامير",
   "type": "جمله بدون فريق ",
   "phone": 773618834,
   "lat": 15.340933,
   "lng": 44.160649,
   "address": "عصر امام فندق کروان بلازا",
   "hours": "9 صباحاً - 9 مساءً",
   "link": "https://maps.google.com/?q=15.340933,44.160649"
 },
 {
   "name": "محلات فتحي الضراب",
   "type": "جمله بدون فريق ",
   "phone": 771683619,
   "lat": 15.341548,
   "lng": 44.161546,
   "address": "عصر فرزه الحديده",
   "hours": "9 صباحاً - 9 مساءً",
   "link": "https://maps.google.com/?q=15.341548,44.161546"
 },
 {
   "name": "محلات ابو هاشم",
   "type": "جمله بدون فريق ",
   "phone": 775577982,
   "lat": 15.341238,
   "lng": 44.1614,
   "address": "عصر امام فرزه الحديده",
   "hours": "9 صباحاً - 9 مساءً",
   "link": "https://maps.google.com/?q=15.341238,44.1614"
 },
 {
   "name": "محلات ابو علي",
   "type": "جمله بدون فريق ",
   "phone": 771542957,
   "lat": 15.34141,
   "lng": 44.161946,
   "address": "عصر امام سو بر مارکت ابو هاشم",
   "hours": "9 صباحاً - 9 مساءً",
   "link": "https://maps.google.com/?q=15.34141,44.161946"
 },
 {
   "name": "محلات احسن غزالي واخوانه للتجاره ال",
   "type": "جمله بدون فريق ",
   "phone": 777565126,
   "lat": 15.358444,
   "lng": 44.172297,
   "address": "شارع السنينه جامعة الناصر الطبيه",
   "hours": "9 صباحاً - 9 مساءً",
   "link": "https://maps.google.com/?q=15.358444,44.172297"
 },
 {
   "name": "محلات العماد للتجاره",
   "type": "جمله بدون فريق ",
   "phone": 770952897,
   "lat": 15.359929,
   "lng": 44.179025,
   "address": "شارع 16 جوار مدرسه التربيه الحديثه",
   "hours": "9 صباحاً - 9 مساءً",
   "link": "https://maps.google.com/?q=15.359929,44.179025"
 },
 {
   "name": "محلات السامعي",
   "type": "جمله بدون فريق ",
   "phone": 771225505,
   "lat": 15.357855,
   "lng": 44.185544,
   "address": "شارع الرقاص جوار مغسله البيت العربي",
   "hours": "9 صباحاً - 9 مساءً",
   "link": "https://maps.google.com/?q=15.357855,44.185544"
 },
 {
   "name": "السعيد للتجاره للمواد الغذئيه",
   "type": "جمله بدون فريق ",
   "phone": 775876655,
   "lat": 15.353031,
   "lng": 44.162418,
   "address": "شار ع 24 امام صاله الرداعي",
   "hours": "9 صباحاً - 9 مساءً",
   "link": "https://maps.google.com/?q=15.353031,44.162418"
 },
 {
   "name": "محلات كمال ابو الرجال",
   "type": "جمله بدون فريق ",
   "phone": 772639568,
   "lat": 15.097373,
   "lng": 43.736817,
   "address": "مغربه مناخه",
   "hours": "9 صباحاً - 9 مساءً",
   "link": "https://maps.google.com/?q=15.097373,43.736817"
 },
 {
   "name": "محلات علي السلامي",
   "type": "جمله بدون فريق ",
   "phone": 771108017,
   "lat": 15.097398,
   "lng": 43.736351,
   "address": "مغربة مناخه",
   "hours": "9 صباحاً - 9 مساءً",
   "link": "https://maps.google.com/?q=15.097398,43.736351"
 },
 {
   "name": "محلات صالح صالح الغانمي",
   "type": "جمله بدون فريق ",
   "phone": 770491896,
   "lat": 15.097331,
   "lng": 43.736259,
   "address": "مغربة مناخه",
   "hours": "9 صباحاً - 9 مساءً",
   "link": "https://maps.google.com/?q=15.097331,43.736259"
 },
 {
   "name": "محلات ايوب المذاب",
   "type": "جمله بدون فريق ",
   "phone": 777406406,
   "lat": 15.096991,
   "lng": 43.736266,
   "address": "مغربة مناخه",
   "hours": "9 صباحاً - 9 مساءً",
   "link": "https://maps.google.com/?q=15.096991,43.736266"
 },
 {
   "name": "محل احمد العيفري",
   "type": "جمله بدون فريق ",
   "phone": 774703931,
   "lat": 15.096918,
   "lng": 43.73602,
   "address": "مغربة مناخه",
   "hours": "9 صباحاً - 9 مساءً",
   "link": "https://maps.google.com/?q=15.096918,43.73602"
 },
 {
   "name": "مؤسسة الشوخي للتجاره العامة",
   "type": "جمله بدون فريق ",
   "phone": 773530443,
   "lat": 15.512023,
   "lng": 43.924072,
   "address": "سوق ابلاس همدان",
   "hours": "9 صباحاً - 9 مساءً",
   "link": "https://maps.google.com/?q=15.512023,43.924072"
 },
 {
   "name": "مجمع سوق الربوع التجاري للتجاره الع",
   "type": "جمله بدون فريق ",
   "phone": 777094393,
   "lat": 15.419647,
   "lng": 44.084416,
   "address": "سوق الربوع همدان",
   "hours": "9 صباحاً - 9 مساءً",
   "link": "https://maps.google.com/?q=15.419647,44.084416"
 },
 {
   "name": "اسطنبول للتجارة مواد غذائيه جمله",
   "type": "جمله بدون فريق ",
   "phone": 772554764,
   "lat": 15.41192,
   "lng": 44.148001,
   "address": "جوله شملان حارة السودة",
   "hours": "9 صباحاً - 9 مساءً",
   "link": "https://maps.google.com/?q=15.41192,44.148001"
 }
]